[
    {
        "type_point": "Pizza",
        "name": "Writer's Cafe",
        "latitude": 13.02621615496164,
        "longitude": 80.24924311865989,
        "map_image_url": "images/location_1.jpg",
        "rate": "3.8",
        "name_point": "restaurant1",
        "get_directions_start_address": " ",
        "phone": "+91 9999999999",
        "view_count": 10,
        "delivery": true,
        "offer": "5% off",
        "address": "Adyar, Chennai"
    },
    {
        "type_point": "Dosa",
        "name": "Northern Spices",
        "latitude": 12.996946723720718,
        "longitude": 80.23963008199644,
        "map_image_url": "images/location_2.jpg",
        "rate": "3",
        "name_point": "restaurant2",
        "get_directions_start_address": " ",
        "phone": "+91 9999999999",
        "view_count": 7,
        "delivery": true,
        "offer": "25% off",
        "address": "Adyar, Chennai"
    },
    {
        "type_point": "Biriyani",
        "name": "Wilows Lounge Bar",
        "latitude": 13.049323635343924,
        "longitude": 80.25432460551886,
        "map_image_url": "images/location_3.jpg",
        "rate": "3.8",
        "name_point": "restaurant3",
        "get_directions_start_address": " ",
        "phone": "+91 9999999999",
        "view_count": 8,
        "delivery": true,
        "offer": "5% off",
        "address": "Mylapore, Chennai"
    },
    {
        "type_point": "Burger",
        "name": "Southern Spice",
        "latitude": 13.048078495419034,
        "longitude": 80.24050470288641,
        "map_image_url": "images/location_4.jpg",
        "rate": "4.5",
        "name_point": "restaurant4",
        "get_directions_start_address": " ",
        "phone": "+91 9999999999",
        "view_count": 3,
        "delivery": false,
        "offer": "15% off",
        "address": "Anna Salai, Chennai"
    },
    {
        "type_point": "Pizza",
        "name": "Winchester",
        "latitude": 13.009658443963705,
        "longitude": 80.20452533079175,
        "map_image_url": "images/location_5.jpg",
        "rate": "3.8",
        "name_point": "restaurant5",
        "get_directions_start_address": " ",
        "phone": "+91 9999999999",
        "view_count": 11,
        "delivery": true,
        "offer": "5% off",
        "address": "Adyar, Chennai"
    },
    {
        "type_point": "Chai",
        "name": "The Marina",
        "latitude": 13.029435915568422,
        "longitude": 80.25799914210361,
        "map_image_url": "images/location_6.jpg",
        "rate": "2.8",
        "name_point": "restaurant6",
        "get_directions_start_address": " ",
        "phone": "+91 9999999999",
        "view_count": 17,
        "delivery": true,
        "offer": "25% off",
        "address": "Mylapore, Chennai"
    },
    {
        "type_point": "Cakes",
        "name": "The Brick Oven",
        "latitude": 13.037291974101311,
        "longitude": 80.24078365261101,
        "map_image_url": "images/location_7.jpg",
        "rate": "3.8",
        "name_point": "restaurant7",
        "get_directions_start_address": " ",
        "phone": "+91 9999999999",
        "view_count": 4,
        "delivery": false,
        "offer": "5% off",
        "address": "Anna Salai, Chennai"
    },
    {
        "type_point": "Seafood",
        "name": "The Residency",
        "latitude": 13.029745963504526,
        "longitude": 80.20240988427796,
        "map_image_url": "images/location_8.jpg",
        "rate": "4.5",
        "name_point": "restaurant8",
        "get_directions_start_address": " ",
        "phone": "+91 9999999999",
        "view_count": 20,
        "delivery": true,
        "offer": "15% off",
        "address": "T. Nagar, Chennai"
    },
    {
        "type_point": "Coffee",
        "name": "Vasco's",
        "latitude": 13.03614819971039,
        "longitude": 80.27371799304939,
        "map_image_url": "images/location_9.jpg",
        "rate": "3.8",
        "name_point": "restaurant9",
        "get_directions_start_address": " ",
        "phone": "+91 9999999999",
        "view_count": 6,
        "delivery": true,
        "offer": "10% off",
        "address": "Mylapore, Chennai"
    },
    {
        "type_point": "Italian",
        "name": "Barbeque Nation",
        "latitude": 13.052054007333666,
        "longitude": 80.25816950928596,
        "map_image_url": "images/location_10.jpg",
        "rate": "5",
        "name_point": "restaurant10",
        "get_directions_start_address": " ",
        "phone": "+91 9999999999",
        "view_count": 8,
        "delivery": true,
        "offer": "5% off",
        "address": "Adyar, Chennai"
    },
    {
        "type_point": "Pizza",
        "name": "The Waterfall",
        "latitude": 13.029745963504526,
        "longitude": 80.20240988427796,
        "map_image_url": "images/location_11.jpg",
        "rate": "3.8",
        "name_point": "restaurant11",
        "get_directions_start_address": " ",
        "phone": "+91 9999999999",
        "view_count": 14,
        "delivery": false,
        "offer": "15% off",
        "address": "Anna Salai, Chennai"
    },
    {
        "type_point": "Italian",
        "name": "Ottimo Cucina Italiana",
        "latitude": 13.03597498288521,
        "longitude": 80.25501008856607,
        "map_image_url": "images/location_12.jpg",
        "rate": "2.9",
        "name_point": "restaurant12",
        "get_directions_start_address": " ",
        "phone": "+91 9999999999",
        "view_count": 4,
        "delivery": true,
        "offer": "2 5% off",
        "address": "Adyar, Chennai"
    }
]